{
    "arr_goods": [
        {
            "name": "钓虾小塘",
            "address": "潘畈9队",
            "phone": "12345678901",
            "business_hours": "周一至周日9:00-17:00"
        },
        {
            "name": "采蘑菇的小山坡",
            "address": "潘畈9队",
            "phone": "12345678902",
            "business_hours": "周一至周日9:00-17:00"
        },
        {
            "name": "放风筝的人",
            "address": "潘畈9队",
            "phone": "12345678903",
            "business_hours": "周一至周日9:00-17:00"
        },
        {
            "name": "天下无染",
            "address": "潘畈9队",
            "phone": "12345678904",
            "business_hours": "周一至周日9:00-17:00"
        },
        {
            "name": "动画梦工厂",
            "address": "潘畈9队",
            "phone": "12345678905",
            "business_hours": "周一至周日9:00-17:00"
        },
        {
            "name": "钓虾小塘",
            "address": "潘畈9队",
            "phone": "12345678901",
            "business_hours": "周一至周日9:00-17:00"
        },
        {
            "name": "采蘑菇的小山坡",
            "address": "潘畈9队",
            "phone": "12345678902",
            "business_hours": "周一至周日9:00-17:00"
        },
        {
            "name": "放风筝的人",
            "address": "潘畈9队",
            "phone": "12345678903",
            "business_hours": "周一至周日9:00-17:00"
        },
        {
            "name": "天下无染",
            "address": "潘畈9队",
            "phone": "12345678904",
            "business_hours": "周一至周日9:00-17:00"
        },
        {
            "name": "动画梦工厂",
            "address": "潘畈9队",
            "phone": "12345678905",
            "business_hours": "周一至周日9:00-17:00"
        }
    ]
}
